[
  {
    "name": "Rach Gia Airport",
    "category": "Domestic airport",
    "rating": 4.2,
    "reviewCount": 42,
    "address": "Address: 418 Cách Mạng Tháng Tám, Rạch Giá, An Giang, Vietnam",
    "latitude": 9.9601929,
    "longitude": 105.1344868
  },
  {
    "name": "Phú Quốc International Airport",
    "category": "International airport",
    "rating": 3.9,
    "reviewCount": 39,
    "address": "Address: Đặc khu Tổ 2, Khu phố, Phú Quốc, An Giang, Vietnam",
    "latitude": 10.1628226,
    "longitude": 103.9980132
  },
  {
    "name": "Dịch vụ đưa đón sân bay đà nẵng - hội an",
    "category": "Airport shuttle service",
    "rating": null,
    "reviewCount": 0,
    "address": "+84 706 619 152",
    "latitude": 15.5885359,
    "longitude": 107.9749555
  },
  {
    "name": "Du lịch liên tỉnh",
    "category": "Airport shuttle service",
    "rating": 5,
    "reviewCount": 50,
    "address": "Address: 23CR+JCF, Rạch Giá, Kiên Giang, Vietnam",
    "latitude": 10.0215601,
    "longitude": 105.0910381
  },
  {
    "name": "DVDL Van Sang",
    "category": "Airport shuttle service",
    "rating": null,
    "reviewCount": 0,
    "address": "Address: 68 Trường Đua, Châu Đốc, An Giang, Vietnam",
    "latitude": 10.7087999,
    "longitude": 105.1026937
  }
]