[
  {
    "name": "GAS OXY LÊ VĂN TIỀN 7",
    "category": "Oil & natural gas company",
    "rating": 5,
    "reviewCount": 50,
    "address": "Address: Đường số 9, Long Xuyên, An Giang, Vietnam",
    "latitude": 10.3666216,
    "longitude": 105.4250355
  },
  {
    "name": "CÔNG TY TNHH MTV NAM LONG GAS",
    "category": "Gas installation service",
    "rating": 5,
    "reviewCount": 50,
    "address": "Address: 221/19D Thoại Ngọc Hầu, khóm Mỹ Lộc, Long Xuyên, An Giang 94000, Vietnam",
    "latitude": 10.368463,
    "longitude": 105.4526254
  },
  {
    "name": "GAS LÊ VĂN TIỀN 3",
    "category": "Gas company",
    "rating": 5,
    "reviewCount": 50,
    "address": "Address: 665 Trần Hưng Đạo, Bình Đức, An Giang, Vietnam",
    "latitude": 10.4023526,
    "longitude": 105.419694
  },
  {
    "name": "Gas Lê Văn Tiền",
    "category": "Gas shop",
    "rating": 4.4,
    "reviewCount": 44,
    "address": "Address: 8FW7+GXC, Trần Hưng Đạo, Mỹ Thới, An Giang, Vietnam",
    "latitude": 10.346323,
    "longitude": 105.464879
  },
  {
    "name": "GAS HUYNH QUANG",
    "category": "Outlet mall",
    "rating": 4.4,
    "reviewCount": 44,
    "address": "Address: Gần Cầu Quay, Cặp vách Thánh Thất Cao Đài, Trần Hưng Đạo, Long Xuyên, An Giang, Vietnam",
    "latitude": 10.392872,
    "longitude": 105.4265964
  }
]