[
  {
    "name": "Giặt Sấy Vĩ Khang - Tiệm Giặt Diệt Khuẩn",
    "category": "Laundry service",
    "rating": 4.2,
    "reviewCount": 42,
    "address": "Address: 479 Ng. 181 Võ Thị Sáu, Long Xuyên, An Giang, Vietnam",
    "latitude": 10.3760079,
    "longitude": 105.4361998
  },
  {
    "name": "Tiệm Giặt Sấy SẠCH THƠM Châu Đốc",
    "category": "Laundry service",
    "rating": 4.6,
    "reviewCount": 46,
    "address": "Address: 458 Thủ Khoa Huân, Châu Đốc, An Giang, Vietnam",
    "latitude": 10.7019711,
    "longitude": 105.1232933
  },
  {
    "name": "Giặt sấy Vỉnh Đạt châu Đốc",
    "category": "Laundry service",
    "rating": 5,
    "reviewCount": 50,
    "address": "Address: Thủ Khoa Nghĩa, Châu Đốc, An Giang, Vietnam",
    "latitude": 10.7136736,
    "longitude": 105.113772
  },
  {
    "name": "Giặt sấy 102 - Hàm Nghi",
    "category": "Laundry service",
    "rating": 4.3,
    "reviewCount": 43,
    "address": "Address: 4c1 Hàm Nghi, Bình Đức, An Giang, Vietnam",
    "latitude": 10.3935152,
    "longitude": 105.4223052
  },
  {
    "name": "HỆ THỐNG GIẶT SẤY TIỆN LỢI SO HAPPY",
    "category": "Laundry service",
    "rating": 5,
    "reviewCount": 50,
    "address": "Address: 298 Lý Thái Tổ, Long Xuyên, An Giang, Vietnam",
    "latitude": 10.3763502,
    "longitude": 105.4404155
  }
]