[
  {
    "name": "In - Photocopy AN VI",
    "category": "Print shop",
    "rating": 4.5,
    "reviewCount": 45,
    "address": "Address: 558 Đ. Võ Thị Sáu, Long Xuyên, An Giang 90100, Vietnam",
    "latitude": 10.3754054,
    "longitude": 105.4373376
  },
  {
    "name": "In Nhanh Gia Khánh - Photocopy San In Màu khổ lớn A0,A1,A2….",
    "category": "Copying supply store",
    "rating": 5,
    "reviewCount": 50,
    "address": "Address: 219 Châu Long, Châu Đốc, An Giang 90513, Vietnam",
    "latitude": 10.7044912,
    "longitude": 105.1351507
  },
  {
    "name": "Photocopy - Thiết Kế - In Ấn KIM LY",
    "category": "Print shop",
    "rating": 4.6,
    "reviewCount": 46,
    "address": "Address: 118d/30 Phan Đình Phùng, Châu Đốc, An Giang, Vietnam",
    "latitude": 10.7039838,
    "longitude": 105.1274833
  },
  {
    "name": "Photocopy, In Màu, Thiệp cưới - Hoàng Phúc",
    "category": "Print shop",
    "rating": 5,
    "reviewCount": 50,
    "address": "Address: 84 Nguyễn Chí Linh, ấp Khánh An, Mỹ Đức, An Giang, Vietnam",
    "latitude": 10.6676641,
    "longitude": 105.1818625
  },
  {
    "name": "In - Photocopy NGUYÊN PHÚC",
    "category": "Print shop",
    "rating": 4.5,
    "reviewCount": 45,
    "address": "Address: Trà Phọt, Giang Thanh, An Giang, Vietnam",
    "latitude": 10.4482614,
    "longitude": 104.5717918
  }
]