[
  {
    "name": "COCO SPA",
    "category": "Skin care clinic",
    "rating": 4.9,
    "reviewCount": 49,
    "address": "Address: Tổ 1 Mỹ Á, ấp Voi, Chi Lăng, An Giang 90715, Vietnam",
    "latitude": 10.534882,
    "longitude": 105.0405596
  },
  {
    "name": "Hi Spa Gội đầu dưỡng sinh , Massage truyền thống",
    "category": "Spa",
    "rating": 4.9,
    "reviewCount": 49,
    "address": "Address: 365 Lý Thái Tổ, Long Xuyên, An Giang 90000, Vietnam",
    "latitude": 10.3754151,
    "longitude": 105.439843
  },
  {
    "name": "Spa Khánh Phương – Massage Nam/Nữ & Gội Đầu Dưỡng Sinh",
    "category": "Skin care clinic",
    "rating": 5,
    "reviewCount": 50,
    "address": "Address: Tổ 19 Ấp Long hiệp, Tân An, An Giang, Vietnam",
    "latitude": 10.801901,
    "longitude": 105.2051608
  },
  {
    "name": "The Men Spa Long Xuyên Massage Boy",
    "category": "Massage spa",
    "rating": 5,
    "reviewCount": 50,
    "address": "Address: 146 Trần Nguyên Đán, Phường, Long Xuyên, An Giang 880000, Vietnam",
    "latitude": 10.3745163,
    "longitude": 105.4266156
  },
  {
    "name": "Massage Dubai Tắc Cậu - Kiên Giang",
    "category": "Massage spa",
    "rating": 4.8,
    "reviewCount": 48,
    "address": "Address: Binh An, An Giang, Vietnam",
    "latitude": 9.8788032,
    "longitude": 105.1357776
  }
]