[
  {
    "name": "SỬA ĐỒ ĐIỆN GIA DỤNG - SẠC XE ĐIỆN",
    "category": "Appliance repair service",
    "rating": 5,
    "reviewCount": 50,
    "address": "Address: MỸ THÀNH, Nhơn Mỹ, An Giang, Vietnam",
    "latitude": 10.4999193,
    "longitude": 105.3474116
  },
  {
    "name": "Sửa chữa điện lạnh điện gia dụng Nguyễn Thái",
    "category": "Electrical repair shop",
    "rating": 5,
    "reviewCount": 50,
    "address": "Address: 394 ấp phú hiệp, Chợ Vàm, An Giang, Vietnam",
    "latitude": 10.7191558,
    "longitude": 105.342483
  },
  {
    "name": "Điện Tử HT An Giang - Sửa tivi tại Long Xuyên",
    "category": "Television repair service",
    "rating": 4.3,
    "reviewCount": 43,
    "address": "Address: 51 Chu Văn An, Long Xuyên, An Giang 90106, Vietnam",
    "latitude": 10.3814954,
    "longitude": 105.4458209
  },
  {
    "name": "TRẠM BẢO HÀNH ĐIỆN TỬ - GIA DỤNG CỢP AG",
    "category": "Electronics store",
    "rating": 5,
    "reviewCount": 50,
    "address": "Address: Oc Eo, An Giang, Vietnam",
    "latitude": 10.2444859,
    "longitude": 105.1549825
  },
  {
    "name": "Tiệm Sữa Chữa Điện Cơ Điện Gia Dụng Bảo",
    "category": "Electrical supply store",
    "rating": null,
    "reviewCount": 0,
    "address": "Address: 557A Đ. Võ Thị Sáu, Long Xuyên, An Giang, Vietnam",
    "latitude": 10.3752943,
    "longitude": 105.4343764
  }
]