[
  {
    "name": "Tiệm Sửa Khóa Đeo( Sửa Khoá LX)",
    "category": "Locksmith",
    "rating": 4.7,
    "reviewCount": 47,
    "address": "Address: 1 Đoàn Văn Phối, Long Xuyên, An Giang 880000, Vietnam",
    "latitude": 10.3839118,
    "longitude": 105.4409061
  },
  {
    "name": "Sửa Khóa Anh Việt",
    "category": "Locksmith",
    "rating": 4.8,
    "reviewCount": 48,
    "address": "Address: 04 3 Tháng 2, Rạch Giá, An Giang 91000, Vietnam",
    "latitude": 9.9753289,
    "longitude": 105.0951485
  },
  {
    "name": "Chính Sửa Khóa",
    "category": "Locksmith",
    "rating": 4,
    "reviewCount": 40,
    "address": "Address: 197 Đường Nguyễn Huệ, Thoại Sơn, An Giang, Vietnam",
    "latitude": 10.2734503,
    "longitude": 105.268385
  },
  {
    "name": "Hồng sang sửa khóa",
    "category": "Home goods store",
    "rating": 5,
    "reviewCount": 50,
    "address": "Address: 8 Lê Lợi, Chợ Mới, An Giang, Vietnam",
    "latitude": 10.5503498,
    "longitude": 105.4020509
  },
  {
    "name": "Sửa khóa 24/7",
    "category": "Tailor",
    "rating": 4.5,
    "reviewCount": 45,
    "address": "Address: X467+4G, Khánh Bình, An Giang, Vietnam",
    "latitude": 10.9602242,
    "longitude": 105.1137882
  }
]