[
  {
    "name": "Cứu Hộ Xe Máy 24h - Minh Thành Motor",
    "category": "Motorcycle repair shop",
    "rating": 4.6,
    "reviewCount": 46,
    "address": "Address: 53 P. Dịch Vọng, Cầu Giấy, Hà Nội, Vietnam",
    "latitude": 21.032474,
    "longitude": 105.7932655
  },
  {
    "name": "Cứu Hộ Xe Máy Hà Nội - Sửa Xe Máy Tận Nơi Minh Thành Motor",
    "category": "Motorcycle repair shop",
    "rating": 5,
    "reviewCount": 50,
    "address": "Address: 129 Hào Nam, Ô Chợ Dừa, Hà Nội 100000, Vietnam",
    "latitude": 21.0249382,
    "longitude": 105.8270612
  },
  {
    "name": "Cứu Hộ Xe Máy Hà Nội - Sửa Xe Máy 24h Minh Thành Motor",
    "category": "Motorcycle repair shop",
    "rating": 5,
    "reviewCount": 50,
    "address": "Address: 27 P. Cửa Đông, Phố cổ Hà Nội, Hoàn Kiếm, Hà Nội 100000, Vietnam",
    "latitude": 21.0344764,
    "longitude": 105.8462142
  },
  {
    "name": "Sửa Chữa, Cứu Hộ Xe Máy 24h Lê Chiều",
    "category": "Motorcycle repair shop",
    "rating": 4.7,
    "reviewCount": 47,
    "address": "Address: 888 Đ. Láng, Láng, Hà Nội 100000, Vietnam",
    "latitude": 21.0204697,
    "longitude": 105.8018553
  },
  {
    "name": "Cứu Hộ ô tô -xe máy -hà nội",
    "category": "Motorcycle repair shop",
    "rating": 4,
    "reviewCount": 40,
    "address": "Address: Ngh. 77/47 Đ. Xuân La/39-45 Đ. Xuân La, Tây Hồ, Hà Nội 100000, Vietnam",
    "latitude": 21.0637468,
    "longitude": 105.8069336
  }
]