[
  {
    "name": "Sửa cửa cuốn Hà Nội 24/24",
    "category": "Building restoration service",
    "rating": 4.2,
    "reviewCount": 42,
    "address": "Address: 14 P. Nguyễn Đình Hoàn, Nghĩa Đô, Hà Nội 100000, Vietnam",
    "latitude": 21.0454828,
    "longitude": 105.80506
  },
  {
    "name": "sửa cửa kính cửa nhôm cửa cuốn",
    "category": "Home builder",
    "rating": 5,
    "reviewCount": 50,
    "address": "Address: 2RMW+F9R, P. Phùng Hưng, Phố cổ Hà Nội, Hoàn Kiếm, Hà Nội, Vietnam",
    "latitude": 21.0337323,
    "longitude": 105.845879
  },
  {
    "name": "Sửa cửa kính tại Hà Nội - Cửa kính Đức Anh",
    "category": "Building restoration service",
    "rating": 4.8,
    "reviewCount": 48,
    "address": "Address: 43A Ng. 278 P. Thái Hà, Ô Chợ Dừa, Hà Nội 10000, Vietnam",
    "latitude": 21.0158525,
    "longitude": 105.8179881
  },
  {
    "name": "Sửa cửa kính tại Hà Nội - Suacuakinh.vn",
    "category": "Glass repair service",
    "rating": 5,
    "reviewCount": 50,
    "address": "Address: 144 Ng. 143 P. Nguyễn Chính, Hoàng Mai, Hà Nội 10000, Vietnam",
    "latitude": 20.9774544,
    "longitude": 105.8522862
  },
  {
    "name": "Sửa Cửa Cuốn",
    "category": "Repair service",
    "rating": 5,
    "reviewCount": 50,
    "address": "Address: 23dv04, Khu đô thị Mỗ Lao, Hà Đông, Hà Nội 12110, Vietnam",
    "latitude": 20.9818376,
    "longitude": 105.779445
  }
]