[
  {
    "name": "Sửa Tủ Lạnh Tại Nhà Hà Nội - Điện Lạnh Thiện Phát 247",
    "category": "Washer & dryer repair service",
    "rating": 4.7,
    "reviewCount": 47,
    "address": "Address: 26 Đ. Xuân La, Tây Hồ, Hà Nội 11200, Vietnam",
    "latitude": 21.0623079,
    "longitude": 105.8080214
  },
  {
    "name": "Sửa Tủ Lạnh Tại Nhà Hà Nội - Điện Lạnh Thiện Phát 247",
    "category": "Washer & dryer repair service",
    "rating": 4.6,
    "reviewCount": 46,
    "address": "Address: 335 Cầu Giấy, Hà Nội, Vietnam",
    "latitude": 21.035326,
    "longitude": 105.7922783
  },
  {
    "name": "Sửa Máy Giặt Tại Nhà Hà Nội - Điện Lạnh Tiến Phát 247",
    "category": "Washer & dryer repair service",
    "rating": 4.5,
    "reviewCount": 45,
    "address": "Address: 204 Đ. Láng, Đống Đa, Hà Nội, Vietnam",
    "latitude": 21.006664,
    "longitude": 105.816044
  },
  {
    "name": "Sửa Tủ Lạnh Tại Nhà Hà Nội - Điện Lạnh Tiến Phát 247",
    "category": "Washer & dryer repair service",
    "rating": 4.5,
    "reviewCount": 45,
    "address": "Address: 200 P. Tây Sơn, Đống Đa, Hà Nội, Vietnam",
    "latitude": 21.00975,
    "longitude": 105.824581
  },
  {
    "name": "Sửa Tủ Lạnh Tại Nhà Hà Nội - Điện Lạnh Tiến Phát 247",
    "category": "Washer & dryer repair service",
    "rating": 4.5,
    "reviewCount": 45,
    "address": "Address: 132 Đ. Nguyễn Khang, Yên Hòa, Hà Nội 100000, Vietnam",
    "latitude": 21.0235987,
    "longitude": 105.7977398
  }
]