[
  {
    "name": "Sửa khoá Anh Vũ - Thợ Sửa Khoá Nha Trang",
    "category": "Locksmith",
    "rating": 4.9,
    "reviewCount": 49,
    "address": "Address: 492 Đ. 2/4, Bắc Nha Trang, Khánh Hòa 650000, Vietnam",
    "latitude": 12.2785212,
    "longitude": 109.1957123
  },
  {
    "name": "Thợ Sửa Khóa Xuân Đỉnh - Bắc Từ Liêm ,Phục Vụ 24/7 .",
    "category": "Locksmith",
    "rating": 5,
    "reviewCount": 50,
    "address": "Address: 247 Đ. Phạm Văn Đồng, Xuân Đỉnh, Hà Nội 100000, Vietnam",
    "latitude": 21.0732047,
    "longitude": 105.7859218
  },
  {
    "name": "Làm chìa khóa ô tô - Sửa Khóa Nhanh",
    "category": "Locksmith",
    "rating": 4.5,
    "reviewCount": 45,
    "address": "Address: 205 P. Giáp Nhất, Thanh Xuân, Hà Nội 100000, Vietnam",
    "latitude": 21.0059247,
    "longitude": 105.8157617
  },
  {
    "name": "Sửa Khóa Nam Tới",
    "category": "Locksmith",
    "rating": 4.9,
    "reviewCount": 49,
    "address": "Address: 27, Hoàng Mai, Hà Nội 100000, Vietnam",
    "latitude": 20.9740318,
    "longitude": 105.8419363
  },
  {
    "name": "Sửa Khóa 24h Hà Nội",
    "category": "Locksmith",
    "rating": 5,
    "reviewCount": 50,
    "address": "Address: 186 P. Triều Khúc, Triều Khúc, Thanh Liệt, Hà Nội 100000, Vietnam",
    "latitude": 20.9808482,
    "longitude": 105.8008861
  }
]