[
  {
    "name": "Queen Billiard",
    "category": "Billiards supply store",
    "rating": 4.7,
    "reviewCount": 47,
    "address": "Address: 42 Đ. Củ Chi, Bắc Nha Trang, Khánh Hòa 650000, Vietnam",
    "latitude": 12.2801088,
    "longitude": 109.2003279
  },
  {
    "name": "MIN Billiards Club - CLB Bida",
    "category": "Country club",
    "rating": 4.9,
    "reviewCount": 49,
    "address": "Address: 227 Điện Biên Phủ, P, Bắc Nha Trang, Khánh Hòa 650000, Vietnam",
    "latitude": 12.2882795,
    "longitude": 109.1970117
  },
  {
    "name": "Bida Linh Cát",
    "category": "Sports club",
    "rating": 4.8,
    "reviewCount": 48,
    "address": "Address: 385E Nguyễn Trãi, Cầu Ông Lãnh, Hồ Chí Minh, Vietnam",
    "latitude": 10.7590375,
    "longitude": 106.6850174
  },
  {
    "name": "CLB BIDA Matrix Billiards Arena Nha Trang",
    "category": "Entertainment agency",
    "rating": 4.9,
    "reviewCount": 49,
    "address": "Address: 22 Đ. Bắc Sơn, Bắc Nha Trang, Khánh Hòa 650000, Vietnam",
    "latitude": 12.2786554,
    "longitude": 109.2018259
  },
  {
    "name": "Top Billiards Club Bida Quận 6",
    "category": "Sports club",
    "rating": 4.9,
    "reviewCount": 49,
    "address": "Address: 955 Đ. Hậu Giang, Bình Phú, Hồ Chí Minh, Vietnam",
    "latitude": 10.7456959,
    "longitude": 106.6266114
  }
]