[
  {
    "name": "Sửa Nhà, Cơ Khí, Điện Nước, Điện Lạnh, Đồ Gỗ - Thợ Việt",
    "category": "Corporate office",
    "rating": 4.9,
    "reviewCount": 49,
    "address": "Address: 88 Đường 18, khu phố 3, Hiệp Bình, Hồ Chí Minh 700000, Vietnam",
    "latitude": 10.8233621,
    "longitude": 106.719348
  },
  {
    "name": "Dịch vụ chuyển nhà Kiến Vàng Sài Gòn",
    "category": "Freight forwarding service",
    "rating": 5,
    "reviewCount": 50,
    "address": "Address: 218/14 Nguyễn Duy Cung, An Hội Tây, Hồ Chí Minh 71427, Vietnam",
    "latitude": 10.8375173,
    "longitude": 106.6433496
  },
  {
    "name": "Công Ty Chuyển Nhà Trọn Gói Thành Tài - Tphcm",
    "category": "Mover",
    "rating": 5,
    "reviewCount": 50,
    "address": "Address: 155 Lê Thiệt, Phú Thọ Hòa, Hồ Chí Minh, Vietnam",
    "latitude": 10.7859047,
    "longitude": 106.6189417
  },
  {
    "name": "Dịch Vụ Chuyển Nhà Trọn Gói Giá Rẻ",
    "category": "Freight forwarding service",
    "rating": 4.7,
    "reviewCount": 47,
    "address": "Address: Lô U CX Thanh Đa, Cư xá Thanh Đa, Bình Quới, Hồ Chí Minh, Vietnam",
    "latitude": 10.8123568,
    "longitude": 106.7210902
  },
  {
    "name": "Chuyển Nhà 24H",
    "category": "Transportation service",
    "rating": 3.7,
    "reviewCount": 37,
    "address": "Address: 16A3 Đ. Nguyễn Thị Tràng, Tân Thới Hiệp, Hồ Chí Minh 700000, Vietnam",
    "latitude": 10.873067,
    "longitude": 106.6391729
  }
]