[
  {
    "name": "Điện lạnh Anh Thắng",
    "category": "Appliance repair service",
    "rating": 4.7,
    "reviewCount": 47,
    "address": "Address: 403/3/6 Đường Bến Phú Định Phường 16 Quận 08 32 đường số 2 khu tái định cư cảng sông Phú Định, Phú Định, Hồ Chí Minh 700000, Vietnam",
    "latitude": 10.71281,
    "longitude": 106.611726
  },
  {
    "name": "Điện Lạnh Thành Phát",
    "category": "Refrigerator repair service",
    "rating": 4.6,
    "reviewCount": 46,
    "address": "Address: Nơ Trang Long, Bình Thạnh, Hồ Chí Minh 700000, Vietnam",
    "latitude": 10.8036165,
    "longitude": 106.6950385
  },
  {
    "name": "Sửa Chữa Điện Lạnh Minh Tuyền",
    "category": "Refrigerator repair service",
    "rating": 5,
    "reviewCount": 50,
    "address": "Address: 147 Nguyễn Văn Đậu, Bình Lợi Trung, Hồ Chí Minh 72314, Vietnam",
    "latitude": 10.8102003,
    "longitude": 106.6898191
  },
  {
    "name": "Chi nhánh 1 Điện Lạnh QuickFix",
    "category": "Refrigerator repair service",
    "rating": 5,
    "reviewCount": 50,
    "address": "Address: 111 Hoàng Bật Đạt, Tân Sơn, Hồ Chí Minh 700000, Vietnam",
    "latitude": 10.8259472,
    "longitude": 106.6342767
  },
  {
    "name": "Điện Lạnh Vạn Phước - Sửa Chữa, Thu Mua, Thanh Lý, Vệ Sinh, Tháo Lắp, Lắp Đặt, Cho Thuê Máy Lạnh Tại TP.HCM",
    "category": "Refrigerator repair service",
    "rating": 4.6,
    "reviewCount": 46,
    "address": "Address: 102 Phan Huy Ích, Tân Sơn, Hồ Chí Minh, Vietnam",
    "latitude": 10.8284465,
    "longitude": 106.6338569
  }
]